Ville,Latitude,Longitude
Paris,48.854368511010776,2.338717213104824
Marseille,43.3046384916822,5.380587512275412
Lyon,45.76606462763691,4.83272363442929
Toulouse,43.61133885593007,1.4543164961156636
Nice,43.704728310979114,7.262061742693011
Nantes,47.2176116889171,-1.5412401068009252
Montpellier,43.611,3.8767
Strasbourg,48.5852,7.73456
Bordeaux,44.82529325038888,-0.5562017943285817
Lille,50.63917372791329,3.076333755125906