Ville,Latitude,Longitude,IATA
Marseille,43.3046384916822,5.380587512275412,MRS
Lyon,45.76606462763691,4.83272363442929,LYS
Toulouse,43.61133885593007,1.4543164961156636,TLS
Nantes,47.2176116889171,-1.5412401068009252,NTE
Montpellier,43.611,3.8767,MPL
Strasbourg,48.5852,7.73456,SXB
Bordeaux,44.82529325038888,-0.5562017943285817,BOD
Lille,50.63917372791329,3.076333755125906,LIL
Limoges,45.83576,1.26816,LIG
Brest,48.447856,-4.41806,BES