Ville,Latitude,Longitude,IATA
Marseille,43.3046384916822,5.380587512275412,MRS
Lyon,45.76606462763691,4.83272363442929,LYS
Nantes,47.21766598437973,-1.542006341849396,NTE
Montpellier,43.611,3.8767,MPL
Bordeaux,44.82529325038888,-0.5562017943285817,BOD
Lille,50.63917372791329,3.076333755125906,LIL
Limoges,45.83576,1.26816,LIG
Dijon,47.32405712713829, 5.027191897738783,DIJ
Toulouse,43.6044622,1.4442469,TLS